[
    {
        "id": "1471095",
        "gmt": "-10",
        "airport_id": "1",
        "iata_code": "AAA",
        "city_iata_code": "AAA",
        "icao_code": "NTGA",
        "country_iso2": "PF",
        "geoname_id": "6947726",
        "latitude": "-17.05",
        "longitude": "-145.41667",
        "airport_name": "Anaa",
        "country_name": "French Polynesia",
        "phone_number": null,
        "timezone": "Pacific/Tahiti"
    },
    {
        "id": "1471096",
        "gmt": "10",
        "airport_id": "2",
        "iata_code": "AAB",
        "city_iata_code": "AAB",
        "icao_code": "YARY",
        "country_iso2": "AU",
        "geoname_id": "7730796",
        "latitude": "-26.7",
        "longitude": "141.04167",
        "airport_name": "Arrabury",
        "country_name": "Australia",
        "phone_number": null,
        "timezone": "Australia/Brisbane"
    },
    {
        "id": "1471097",
        "gmt": "2",
        "airport_id": "3",
        "iata_code": "AAC",
        "city_iata_code": "AAC",
        "icao_code": "HEAR",
        "country_iso2": "EG",
        "geoname_id": "6297289",
        "latitude": "31.133333",
        "longitude": "33.75",
        "airport_name": "El Arish International Airport",
        "country_name": "Egypt",
        "phone_number": null,
        "timezone": "Africa/Cairo"
    },
    {
        "id": "1471098",
        "gmt": "1",
        "airport_id": "4",
        "iata_code": "AAE",
        "city_iata_code": "AAE",
        "icao_code": "DABB",
        "country_iso2": "DZ",
        "geoname_id": "2570559",
        "latitude": "36.821392",
        "longitude": "7.811857",
        "airport_name": "Les Salines",
        "country_name": null,
        "phone_number": null,
        "timezone": "Africa/Algiers"
    },
    {
        "id": "1471099",
        "gmt": "-5",
        "airport_id": "5",
        "iata_code": "AAF",
        "city_iata_code": "AAF",
        "icao_code": "KAAF",
        "country_iso2": "US",
        "geoname_id": "4146153",
        "latitude": "29.733334",
        "longitude": "-84.98333",
        "airport_name": "Apalachicola Regional",
        "country_name": "United States",
        "phone_number": null,
        "timezone": "America/New_York"
    },
    {
        "id": "1471100",
        "gmt": "-3",
        "airport_id": "6",
        "iata_code": "AAG",
        "city_iata_code": "AAG",
        "icao_code": "SSYA",
        "country_iso2": "BR",
        "geoname_id": "3471795",
        "latitude": "-24.103611",
        "longitude": "-49.79",
        "airport_name": "Arapoti",
        "country_name": "Brazil",
        "phone_number": null,
        "timezone": "America/Sao_Paulo"
    },
    {
        "id": "1471101",
        "gmt": "1",
        "airport_id": "7",
        "iata_code": "AAH",
        "city_iata_code": "AAH",
        "icao_code": "EDKA",
        "country_iso2": "DE",
        "geoname_id": "3207669",
        "latitude": "50.75",
        "longitude": "6.133333",
        "airport_name": "Aachen/Merzbruck",
        "country_name": "Germany",
        "phone_number": null,
        "timezone": "Europe/Berlin"
    },
    {
        "id": "1471102",
        "gmt": "-3",
        "airport_id": "8",
        "iata_code": "AAI",
        "city_iata_code": "AAI",
        "icao_code": "SWRA",
        "country_iso2": "BR",
        "geoname_id": "7668483",
        "latitude": "-12.916667",
        "longitude": "-46.933334",
        "airport_name": "Arraias",
        "country_name": "Brazil",
        "phone_number": null,
        "timezone": "America/Araguaina"
    },
    {
        "id": "1471104",
        "gmt": "12",
        "airport_id": "10",
        "iata_code": "AAK",
        "city_iata_code": "AAK",
        "icao_code": "NGUK",
        "country_iso2": "KI",
        "geoname_id": "7521791",
        "latitude": "0.166667",
        "longitude": "173.58333",
        "airport_name": "Aranuka",
        "country_name": "Kiribati",
        "phone_number": null,
        "timezone": "Pacific/Tarawa"
    },
    {
        "id": "1471105",
        "gmt": "1",
        "airport_id": "11",
        "iata_code": "AAL",
        "city_iata_code": "AAL",
        "icao_code": "EKYT",
        "country_iso2": "DK",
        "geoname_id": "2624887",
        "latitude": "57.08655",
        "longitude": "9.872241",
        "airport_name": "Aalborg",
        "country_name": "Denmark",
        "phone_number": null,
        "timezone": "Europe/Copenhagen"
    },
    {
        "id": "1471106",
        "gmt": "2",
        "airport_id": "12",
        "iata_code": "AAM",
        "city_iata_code": "AAM",
        "icao_code": "FAMD",
        "country_iso2": "ZA",
        "geoname_id": "7668229",
        "latitude": "-24.8",
        "longitude": "31.533333",
        "airport_name": "Mala Mala",
        "country_name": "South Africa",
        "phone_number": null,
        "timezone": "Africa/Johannesburg"
    },
    {
        "id": "1471107",
        "gmt": "4",
        "airport_id": "13",
        "iata_code": "AAN",
        "city_iata_code": "AAN",
        "icao_code": "OMAL",
        "country_iso2": "AE",
        "geoname_id": "6300095",
        "latitude": "24.260231",
        "longitude": "55.616627",
        "airport_name": "Al Ain",
        "country_name": "United Arab Emirates",
        "phone_number": null,
        "timezone": "Asia/Dubai"
    },
    {
        "id": "1471109",
        "gmt": "3",
        "airport_id": "15",
        "iata_code": "AAQ",
        "city_iata_code": "AAQ",
        "icao_code": "URKA",
        "country_iso2": "RU",
        "geoname_id": "6300989",
        "latitude": "44.9",
        "longitude": "37.316666",
        "airport_name": "Anapa",
        "country_name": "Russia",
        "phone_number": null,
        "timezone": "Europe/Moscow"
    },
    {
        "id": "1471110",
        "gmt": "1",
        "airport_id": "16",
        "iata_code": "AAR",
        "city_iata_code": "AAR",
        "icao_code": "EKAH",
        "country_iso2": "DK",
        "geoname_id": "2611665",
        "latitude": "56.30823",
        "longitude": "10.626351",
        "airport_name": "Aarhus Airport",
        "country_name": "Denmark",
        "phone_number": null,
        "timezone": "Europe/Copenhagen"
    },
    {
        "id": "1471112",
        "gmt": "8",
        "airport_id": "18",
        "iata_code": "AAT",
        "city_iata_code": "AAT",
        "icao_code": "ZWAT",
        "country_iso2": "CN",
        "geoname_id": "7910421",
        "latitude": "47.750362",
        "longitude": "88.08444",
        "airport_name": "Altay",
        "country_name": "China",
        "phone_number": null,
        "timezone": "Asia/Shanghai"
    },
    {
        "id": "1471116",
        "gmt": "-3",
        "airport_id": "22",
        "iata_code": "AAX",
        "city_iata_code": "AAX",
        "icao_code": "SBAX",
        "country_iso2": "BR",
        "geoname_id": "7668431",
        "latitude": "-19.568056",
        "longitude": "-46.92917",
        "airport_name": "Araxa",
        "country_name": "Brazil",
        "phone_number": null,
        "timezone": "America/Sao_Paulo"
    },
    {
        "id": "1471117",
        "gmt": "3",
        "airport_id": "23",
        "iata_code": "AAY",
        "city_iata_code": "AAY",
        "icao_code": "OYGD",
        "country_iso2": "YE",
        "geoname_id": "7668412",
        "latitude": "16.19596",
        "longitude": "52.173256",
        "airport_name": "Al Ghaydah",
        "country_name": "Yemen",
        "phone_number": null,
        "timezone": "Asia/Aden"
    },
    {
        "id": "1471118",
        "gmt": "-6",
        "airport_id": "24",
        "iata_code": "AAZ",
        "city_iata_code": "AAZ",
        "icao_code": "MGQZ",
        "country_iso2": "GT",
        "geoname_id": "6299804",
        "latitude": "14.87",
        "longitude": "-91.5",
        "airport_name": "Quetzaltenango",
        "country_name": "Guatemala",
        "phone_number": null,
        "timezone": "America/Guatemala"
    },
    {
        "id": "1471119",
        "gmt": "7",
        "airport_id": "25",
        "iata_code": "ABA",
        "city_iata_code": "ABA",
        "icao_code": "UNAA",
        "country_iso2": "RU",
        "geoname_id": "6300982",
        "latitude": "53.716667",
        "longitude": "91.5",
        "airport_name": "Abakan",
        "country_name": "Russia",
        "phone_number": null,
        "timezone": "Asia/Krasnoyarsk"
    },
    {
        "id": "1471120",
        "gmt": "1",
        "airport_id": "26",
        "iata_code": "ABB",
        "city_iata_code": "ABB",
        "icao_code": "DNAS",
        "country_iso2": "NG",
        "geoname_id": "7668214",
        "latitude": "6.203333",
        "longitude": "6.65888",
        "airport_name": "Asaba International",
        "country_name": "Nigeria",
        "phone_number": null,
        "timezone": "Africa/Lagos"
    },
    {
        "id": "1471121",
        "gmt": "1",
        "airport_id": "27",
        "iata_code": "ABC",
        "city_iata_code": "ABC",
        "icao_code": "LEAB",
        "country_iso2": "ES",
        "geoname_id": "6299323",
        "latitude": "38.948334",
        "longitude": "-1.863333",
        "airport_name": "Los Llanos",
        "country_name": "Spain",
        "phone_number": null,
        "timezone": "Europe/Madrid"
    },
    {
        "id": "1471122",
        "gmt": "3.30",
        "airport_id": "28",
        "iata_code": "ABD",
        "city_iata_code": "ABD",
        "icao_code": "OIAA",
        "country_iso2": "IR",
        "geoname_id": "6300034",
        "latitude": "30.363905",
        "longitude": "48.226597",
        "airport_name": "Abadan",
        "country_name": "Iran",
        "phone_number": null,
        "timezone": "Asia/Tehran"
    },
    {
        "id": "1471123",
        "gmt": "-5",
        "airport_id": "29",
        "iata_code": "ABE",
        "city_iata_code": "ABE",
        "icao_code": "KABE",
        "country_iso2": "US",
        "geoname_id": "5200013",
        "latitude": "40.651573",
        "longitude": "-75.434364",
        "airport_name": "Lehigh Valley International",
        "country_name": "United States",
        "phone_number": null,
        "timezone": "America/New_York"
    },
    {
        "id": "1471126",
        "gmt": "10",
        "airport_id": "32",
        "iata_code": "ABH",
        "city_iata_code": "ABH",
        "icao_code": "YAPH",
        "country_iso2": "AU",
        "geoname_id": "7668679",
        "latitude": "-23.65",
        "longitude": "146.63333",
        "airport_name": "Alpha",
        "country_name": "Australia",
        "phone_number": null,
        "timezone": "Australia/Brisbane"
    },
    {
        "id": "1471127",
        "gmt": "-6",
        "airport_id": "33",
        "iata_code": "ABI",
        "city_iata_code": "ABI",
        "icao_code": "KABI",
        "country_iso2": "US",
        "geoname_id": "4669647",
        "latitude": "32.409443",
        "longitude": "-99.679726",
        "airport_name": "Municipal",
        "country_name": "United States",
        "phone_number": null,
        "timezone": "America/Chicago"
    },
    {
        "id": "1471128",
        "gmt": null,
        "airport_id": "34",
        "iata_code": "ABJ",
        "city_iata_code": "ABJ",
        "icao_code": "DIAP",
        "country_iso2": "CI",
        "geoname_id": "6296433",
        "latitude": "5.254879",
        "longitude": "-3.933015",
        "airport_name": "Felix Houphouet Boigny",
        "country_name": null,
        "phone_number": null,
        "timezone": "Africa/Abidjan"
    },
    {
        "id": "1471129",
        "gmt": "3",
        "airport_id": "35",
        "iata_code": "ABK",
        "city_iata_code": "ABK",
        "icao_code": "HADK",
        "country_iso2": "ET",
        "geoname_id": "6297274",
        "latitude": "6.733889",
        "longitude": "44.26611",
        "airport_name": "Kabri Dar",
        "country_name": "Ethiopia",
        "phone_number": null,
        "timezone": "Africa/Addis_Ababa"
    },
    {
        "id": "1471130",
        "gmt": "-9",
        "airport_id": "36",
        "iata_code": "ABL",
        "city_iata_code": "ABL",
        "icao_code": "PAFM",
        "country_iso2": "US",
        "geoname_id": "5879298",
        "latitude": "67.0875",
        "longitude": "-157.84584",
        "airport_name": "Ambler",
        "country_name": "United States",
        "phone_number": null,
        "timezone": "America/Anchorage"
    },
    {
        "id": "1471131",
        "gmt": "10",
        "airport_id": "37",
        "iata_code": "ABM",
        "city_iata_code": "ABM",
        "icao_code": "YBAM",
        "country_iso2": "AU",
        "geoname_id": "7730800",
        "latitude": "-10.942619",
        "longitude": "142.45033",
        "airport_name": "Bamaga Injinoo",
        "country_name": "Australia",
        "phone_number": null,
        "timezone": "Australia/Brisbane"
    },
    {
        "id": "1471133",
        "gmt": null,
        "airport_id": "39",
        "iata_code": "ABO",
        "city_iata_code": "ABO",
        "icao_code": "DIAO",
        "country_iso2": "CI",
        "geoname_id": "8260695",
        "latitude": "5.433333",
        "longitude": "-3.216667",
        "airport_name": "Aboisso",
        "country_name": null,
        "phone_number": null,
        "timezone": "Africa/Abidjan"
    },
    {
        "id": "1471135",
        "gmt": "-7",
        "airport_id": "41",
        "iata_code": "ABQ",
        "city_iata_code": "ABQ",
        "icao_code": "KABQ",
        "country_iso2": "US",
        "geoname_id": "5454724",
        "latitude": "35.049625",
        "longitude": "-106.617195",
        "airport_name": "Albuquerque International",
        "country_name": "United States",
        "phone_number": "505-244-7700",
        "timezone": "America/Denver"
    },
    {
        "id": "1471136",
        "gmt": "-6",
        "airport_id": "42",
        "iata_code": "ABR",
        "city_iata_code": "ABR",
        "icao_code": "KABR",
        "country_iso2": "US",
        "geoname_id": "5225860",
        "latitude": "45.4525",
        "longitude": "-98.42611",
        "airport_name": "Municipal",
        "country_name": "United States",
        "phone_number": null,
        "timezone": "America/Chicago"
    },
    {
        "id": "1471137",
        "gmt": "2",
        "airport_id": "43",
        "iata_code": "ABS",
        "city_iata_code": "ABS",
        "icao_code": "HEBL",
        "country_iso2": "EG",
        "geoname_id": "6452622",
        "latitude": "22.367567",
        "longitude": "31.609774",
        "airport_name": "Abu Simbel",
        "country_name": "Egypt",
        "phone_number": null,
        "timezone": "Africa/Cairo"
    },
    {
        "id": "1471138",
        "gmt": "3",
        "airport_id": "44",
        "iata_code": "ABT",
        "city_iata_code": "ABT",
        "icao_code": "OEBA",
        "country_iso2": "SA",
        "geoname_id": "6300010",
        "latitude": "20.29401",
        "longitude": "41.64002",
        "airport_name": "Al-Aqiq",
        "country_name": "Saudi Arabia",
        "phone_number": null,
        "timezone": "Asia/Riyadh"
    },
    {
        "id": "1471139",
        "gmt": "8",
        "airport_id": "45",
        "iata_code": "ABU",
        "city_iata_code": "ABU",
        "icao_code": "WATA",
        "country_iso2": "ID",
        "geoname_id": "7730801",
        "latitude": "-9.133333",
        "longitude": "124.88333",
        "airport_name": "Atambua",
        "country_name": "Indonesia",
        "phone_number": null,
        "timezone": "Asia/Makassar"
    },
    {
        "id": "1471140",
        "gmt": "1",
        "airport_id": "46",
        "iata_code": "ABV",
        "city_iata_code": "ABV",
        "icao_code": "DNAA",
        "country_iso2": "NG",
        "geoname_id": "7649170",
        "latitude": "9.004614",
        "longitude": "7.270447",
        "airport_name": "Nnamdi Azikiwe International Airport",
        "country_name": "Nigeria",
        "phone_number": null,
        "timezone": "Africa/Lagos"
    },
    {
        "id": "1471142",
        "gmt": "10",
        "airport_id": "48",
        "iata_code": "ABX",
        "city_iata_code": "ABX",
        "icao_code": "YMAY",
        "country_iso2": "AU",
        "geoname_id": "6301309",
        "latitude": "-36.069626",
        "longitude": "146.95453",
        "airport_name": "Albury",
        "country_name": "Australia",
        "phone_number": null,
        "timezone": "Australia/Sydney"
    },
    {
        "id": "1471143",
        "gmt": "-5",
        "airport_id": "49",
        "iata_code": "ABY",
        "city_iata_code": "ABY",
        "icao_code": "KABY",
        "country_iso2": "US",
        "geoname_id": "4223821",
        "latitude": "31.532223",
        "longitude": "-84.19611",
        "airport_name": "Dougherty County",
        "country_name": "United States",
        "phone_number": null,
        "timezone": "America/New_York"
    },
    {
        "id": "1471144",
        "gmt": null,
        "airport_id": "50",
        "iata_code": "ABZ",
        "city_iata_code": "ABZ",
        "icao_code": "EGPD",
        "country_iso2": "GB",
        "geoname_id": "6296624",
        "latitude": "57.200253",
        "longitude": "-2.204186",
        "airport_name": "Dyce",
        "country_name": "United Kingdom",
        "phone_number": null,
        "timezone": "Europe/London"
    },
    {
        "id": "1471145",
        "gmt": "-6",
        "airport_id": "51",
        "iata_code": "ACA",
        "city_iata_code": "ACA",
        "icao_code": "MMAA",
        "country_iso2": "MX",
        "geoname_id": "6299826",
        "latitude": "16.762403",
        "longitude": "-99.75459",
        "airport_name": "General Juan N. Alvarez International",
        "country_name": "Mexico",
        "phone_number": null,
        "timezone": "America/Mexico_City"
    },
    {
        "id": "1471146",
        "gmt": "-5",
        "airport_id": "52",
        "iata_code": "ACB",
        "city_iata_code": "ACB",
        "icao_code": "KACB",
        "country_iso2": "US",
        "geoname_id": "4985583",
        "latitude": "44.983334",
        "longitude": "-85.21667",
        "airport_name": "Antrim County",
        "country_name": "United States",
        "phone_number": null,
        "timezone": "America/Detroit"
    },
    {
        "id": "1471147",
        "gmt": null,
        "airport_id": "53",
        "iata_code": "ACC",
        "city_iata_code": "ACC",
        "icao_code": "DGAA",
        "country_iso2": "GH",
        "geoname_id": "2306104",
        "latitude": "5.60737",
        "longitude": "-0.171769",
        "airport_name": "Kotoka",
        "country_name": "Ghana",
        "phone_number": null,
        "timezone": "Africa/Accra"
    },
    {
        "id": "1471148",
        "gmt": "-5",
        "airport_id": "54",
        "iata_code": "ACD",
        "city_iata_code": "ACD",
        "icao_code": "SKAD",
        "country_iso2": "CO",
        "geoname_id": "7668454",
        "latitude": "8.516667",
        "longitude": "-77.3",
        "airport_name": "Acandi",
        "country_name": "Colombia",
        "phone_number": null,
        "timezone": "America/Bogota"
    },
    {
        "id": "1471149",
        "gmt": null,
        "airport_id": "55",
        "iata_code": "ACE",
        "city_iata_code": "ACE",
        "icao_code": "GCRR",
        "country_iso2": "ES",
        "geoname_id": "6297189",
        "latitude": "28.950668",
        "longitude": "-13.609059",
        "airport_name": "Lanzarote",
        "country_name": "Spain",
        "phone_number": "902 404 704",
        "timezone": "Atlantic/Canary"
    },
    {
        "id": "1471150",
        "gmt": "1",
        "airport_id": "56",
        "iata_code": "ACH",
        "city_iata_code": "ACH",
        "icao_code": "LSZR",
        "country_iso2": "CH",
        "geoname_id": "6299723",
        "latitude": "47.483334",
        "longitude": "9.566667",
        "airport_name": "Altenrhein",
        "country_name": "Switzerland",
        "phone_number": null,
        "timezone": "Europe/Zurich"
    },
    {
        "id": "1471151",
        "gmt": null,
        "airport_id": "57",
        "iata_code": "ACI",
        "city_iata_code": "ACI",
        "icao_code": "EGJA",
        "country_iso2": "GG",
        "geoname_id": "6296593",
        "latitude": "49.709347",
        "longitude": "-2.215369",
        "airport_name": "The Blaye",
        "country_name": "Guernsey",
        "phone_number": null,
        "timezone": "Europe/Guernsey"
    },
    {
        "id": "1471152",
        "gmt": "5.30",
        "airport_id": "58",
        "iata_code": "ACJ",
        "city_iata_code": "ACJ",
        "icao_code": "VCCA",
        "country_iso2": "LK",
        "geoname_id": "1251081",
        "latitude": "8.35",
        "longitude": "80.38333",
        "airport_name": "Anuradhapura",
        "country_name": "Sri Lanka",
        "phone_number": null,
        "timezone": "Asia/Colombo"
    },
    {
        "id": "1471153",
        "gmt": "-5",
        "airport_id": "59",
        "iata_code": "ACK",
        "city_iata_code": "ACK",
        "icao_code": "KACK",
        "country_iso2": "US",
        "geoname_id": "4944927",
        "latitude": "41.256668",
        "longitude": "-70.05972",
        "airport_name": "Nantucket Memorial",
        "country_name": "United States",
        "phone_number": null,
        "timezone": "America/New_York"
    },
    {
        "id": "1471156",
        "gmt": "-6",
        "airport_id": "62",
        "iata_code": "ACN",
        "city_iata_code": "ACN",
        "icao_code": "MMCC",
        "country_iso2": "MX",
        "geoname_id": "7668344",
        "latitude": "29.3",
        "longitude": "-100.916664",
        "airport_name": "Ciudad Acu\u00f1a International Airport",
        "country_name": "Mexico",
        "phone_number": null,
        "timezone": "America/Matamoros"
    },
    {
        "id": "1471157",
        "gmt": "3.30",
        "airport_id": "63",
        "iata_code": "ACP",
        "city_iata_code": "ACP",
        "icao_code": "OITM",
        "country_iso2": "IR",
        "geoname_id": "17839",
        "latitude": "37.347244",
        "longitude": "46.145115",
        "airport_name": "Sahand",
        "country_name": "Iran",
        "phone_number": null,
        "timezone": "Asia/Tehran"
    },
    {
        "id": "1471158",
        "gmt": "-5",
        "airport_id": "64",
        "iata_code": "ACR",
        "city_iata_code": "ACR",
        "icao_code": "SKAC",
        "country_iso2": "CO",
        "geoname_id": "7730802",
        "latitude": "-0.383333",
        "longitude": "-72.3",
        "airport_name": "Araracuara",
        "country_name": "Colombia",
        "phone_number": null,
        "timezone": "America/Bogota"
    },
    {
        "id": "1471159",
        "gmt": "7",
        "airport_id": "65",
        "iata_code": "ACS",
        "city_iata_code": "ACS",
        "icao_code": "UNKS",
        "country_iso2": "RU",
        "geoname_id": "7668523",
        "latitude": "56.266666",
        "longitude": "90.566666",
        "airport_name": "Achinsk",
        "country_name": "Russia",
        "phone_number": null,
        "timezone": "Asia/Krasnoyarsk"
    },
    {
        "id": "1471160",
        "gmt": "-6",
        "airport_id": "66",
        "iata_code": "ACT",
        "city_iata_code": "ACT",
        "icao_code": "KACT",
        "country_iso2": "US",
        "geoname_id": "4739545",
        "latitude": "31.609133",
        "longitude": "-97.22321",
        "airport_name": "Municipal",
        "country_name": "United States",
        "phone_number": null,
        "timezone": "America/Chicago"
    },
    {
        "id": "1471162",
        "gmt": "-8",
        "airport_id": "68",
        "iata_code": "ACV",
        "city_iata_code": "ACV",
        "icao_code": "KACV",
        "country_iso2": "US",
        "geoname_id": "5558955",
        "latitude": "40.970913",
        "longitude": "-124.106926",
        "airport_name": "Arcata",
        "country_name": "United States",
        "phone_number": null,
        "timezone": "America/Los_Angeles"
    },
    {
        "id": "1471164",
        "gmt": "-5",
        "airport_id": "70",
        "iata_code": "ACY",
        "city_iata_code": "AIY",
        "icao_code": "KACY",
        "country_iso2": "US",
        "geoname_id": "4500551",
        "latitude": "39.450703",
        "longitude": "-74.572235",
        "airport_name": "Atlantic City International",
        "country_name": "United States",
        "phone_number": null,
        "timezone": "America/New_York"
    },
    {
        "id": "1471165",
        "gmt": "3.30",
        "airport_id": "71",
        "iata_code": "ACZ",
        "city_iata_code": "ACZ",
        "icao_code": "OIZB",
        "country_iso2": "IR",
        "geoname_id": "6300083",
        "latitude": "31.087694",
        "longitude": "61.542244",
        "airport_name": "Zabol Airport",
        "country_name": "Iran",
        "phone_number": null,
        "timezone": "Asia/Tehran"
    },
    {
        "id": "1471166",
        "gmt": "3",
        "airport_id": "72",
        "iata_code": "ADA",
        "city_iata_code": "ADA",
        "icao_code": "LTAF",
        "country_iso2": "TR",
        "geoname_id": "6299727",
        "latitude": "36.98503",
        "longitude": "35.29736",
        "airport_name": "Adana",
        "country_name": "Turkey",
        "phone_number": null,
        "timezone": "Europe/Istanbul"
    },
    {
        "id": "1471167",
        "gmt": "3",
        "airport_id": "73",
        "iata_code": "ADB",
        "city_iata_code": "IZM",
        "icao_code": "LTBJ",
        "country_iso2": "TR",
        "geoname_id": "6299750",
        "latitude": "38.294403",
        "longitude": "27.147594",
        "airport_name": "Adnan Menderes Airport",
        "country_name": "Turkey",
        "phone_number": null,
        "timezone": "Europe/Istanbul"
    },
    {
        "id": "1471169",
        "gmt": "3",
        "airport_id": "75",
        "iata_code": "ADD",
        "city_iata_code": "ADD",
        "icao_code": "HAAB",
        "country_iso2": "ET",
        "geoname_id": "6297257",
        "latitude": "8.983759",
        "longitude": "38.7959",
        "airport_name": "Bole International",
        "country_name": "Ethiopia",
        "phone_number": "-425",
        "timezone": "Africa/Addis_Ababa"
    },
    {
        "id": "1471170",
        "gmt": "3",
        "airport_id": "76",
        "iata_code": "ADE",
        "city_iata_code": "ADE",
        "icao_code": "OYAA",
        "country_iso2": "YE",
        "geoname_id": "6300134",
        "latitude": "12.826116",
        "longitude": "45.037537",
        "airport_name": "Aden International Airport",
        "country_name": "Yemen",
        "phone_number": null,
        "timezone": "Asia/Aden"
    },
    {
        "id": "1471171",
        "gmt": "3",
        "airport_id": "77",
        "iata_code": "ADF",
        "city_iata_code": "ADF",
        "icao_code": "LTCP",
        "country_iso2": "TR",
        "geoname_id": "6457345",
        "latitude": "37.75",
        "longitude": "38.266666",
        "airport_name": "Adiyaman",
        "country_name": "Turkey",
        "phone_number": null,
        "timezone": "Europe/Istanbul"
    },
    {
        "id": "1471172",
        "gmt": "-5",
        "airport_id": "78",
        "iata_code": "ADG",
        "city_iata_code": "ADG",
        "icao_code": "KADG",
        "country_iso2": "US",
        "geoname_id": "4999082",
        "latitude": "41.9",
        "longitude": "-84.03333",
        "airport_name": "Lenawee County",
        "country_name": "United States",
        "phone_number": null,
        "timezone": "America/Detroit"
    },
    {
        "id": "1471173",
        "gmt": "9",
        "airport_id": "79",
        "iata_code": "ADH",
        "city_iata_code": "ADH",
        "icao_code": "UEEA",
        "country_iso2": "RU",
        "geoname_id": "7730803",
        "latitude": "58.6",
        "longitude": "125.4",
        "airport_name": "Aldan",
        "country_name": "Russia",
        "phone_number": null,
        "timezone": "Asia/Yakutsk"
    },
    {
        "id": "1471174",
        "gmt": "2",
        "airport_id": "80",
        "iata_code": "ADI",
        "city_iata_code": "ADI",
        "icao_code": "FYAR",
        "country_iso2": "NA",
        "geoname_id": "7668263",
        "latitude": "-22.4",
        "longitude": "15",
        "airport_name": "Arandis",
        "country_name": "Namibia",
        "phone_number": null,
        "timezone": "Africa/Windhoek"
    },
    {
        "id": "1471175",
        "gmt": "2",
        "airport_id": "81",
        "iata_code": "ADJ",
        "city_iata_code": "AMM",
        "icao_code": "OJAM",
        "country_iso2": "JO",
        "geoname_id": "250437",
        "latitude": "31.97533",
        "longitude": "35.98277",
        "airport_name": "Marka International Airport",
        "country_name": "Jordan",
        "phone_number": null,
        "timezone": "Asia/Amman"
    },
    {
        "id": "1471176",
        "gmt": "-10",
        "airport_id": "82",
        "iata_code": "ADK",
        "city_iata_code": "ADK",
        "icao_code": "PADK",
        "country_iso2": "US",
        "geoname_id": "6300161",
        "latitude": "51.88278",
        "longitude": "-176.64473",
        "airport_name": "Adak Island Ns",
        "country_name": "United States",
        "phone_number": null,
        "timezone": "America/Adak"
    },
    {
        "id": "1471177",
        "gmt": "9.30",
        "airport_id": "83",
        "iata_code": "ADL",
        "city_iata_code": "ADL",
        "icao_code": "YPAD",
        "country_iso2": "AU",
        "geoname_id": "6301322",
        "latitude": "-34.938175",
        "longitude": "138.53735",
        "airport_name": "Adelaide International Airport",
        "country_name": "Australia",
        "phone_number": "+61 8-8308-92",
        "timezone": "Australia/Adelaide"
    },
    {
        "id": "1471178",
        "gmt": "-6",
        "airport_id": "84",
        "iata_code": "ADM",
        "city_iata_code": "ADM",
        "icao_code": "KADM",
        "country_iso2": "US",
        "geoname_id": "4529475",
        "latitude": "34.303055",
        "longitude": "-97.01945",
        "airport_name": "Ardmore Municipal Airport",
        "country_name": "United States",
        "phone_number": null,
        "timezone": "America/Chicago"
    },
    {
        "id": "1471180",
        "gmt": "9.30",
        "airport_id": "86",
        "iata_code": "ADO",
        "city_iata_code": "ADO",
        "icao_code": "YAMK",
        "country_iso2": "AU",
        "geoname_id": "7730805",
        "latitude": "-31.016666",
        "longitude": "137.15",
        "airport_name": "Andamooka",
        "country_name": "Australia",
        "phone_number": null,
        "timezone": "Australia/Adelaide"
    },
    {
        "id": "1471182",
        "gmt": "-9",
        "airport_id": "88",
        "iata_code": "ADQ",
        "city_iata_code": "ADQ",
        "icao_code": "PADQ",
        "country_iso2": "US",
        "geoname_id": "5866583",
        "latitude": "57.755276",
        "longitude": "-152.51297",
        "airport_name": "Kodiak Airport",
        "country_name": "United States",
        "phone_number": null,
        "timezone": "America/Anchorage"
    },
    {
        "id": "1471183",
        "gmt": "-5",
        "airport_id": "89",
        "iata_code": "ADR",
        "city_iata_code": "ADR",
        "icao_code": "KPHH",
        "country_iso2": "US",
        "geoname_id": "4569376",
        "latitude": "33.45",
        "longitude": "-79.566666",
        "airport_name": "Andrews",
        "country_name": "United States",
        "phone_number": null,
        "timezone": "America/New_York"
    },
    {
        "id": "1471184",
        "gmt": "-6",
        "airport_id": "90",
        "iata_code": "ADS",
        "city_iata_code": "DFW",
        "icao_code": "KADS",
        "country_iso2": "US",
        "geoname_id": "4669829",
        "latitude": "32.783333",
        "longitude": "-97.3",
        "airport_name": "Addison Airport",
        "country_name": "United States",
        "phone_number": null,
        "timezone": "America/Chicago"
    },
    {
        "id": "1471185",
        "gmt": "-6",
        "airport_id": "91",
        "iata_code": "ADT",
        "city_iata_code": "ADT",
        "icao_code": "KADH",
        "country_iso2": "US",
        "geoname_id": "4529103",
        "latitude": "34.8",
        "longitude": "-96.666664",
        "airport_name": "Ada Municipal",
        "country_name": "United States",
        "phone_number": null,
        "timezone": "America/Chicago"
    },
    {
        "id": "1471186",
        "gmt": "3.30",
        "airport_id": "92",
        "iata_code": "ADU",
        "city_iata_code": "ADU",
        "icao_code": "OITL",
        "country_iso2": "IR",
        "geoname_id": "6300077",
        "latitude": "38.323826",
        "longitude": "48.42125",
        "airport_name": "Ardabil",
        "country_name": "Iran",
        "phone_number": null,
        "timezone": "Asia/Tehran"
    },
    {
        "id": "1471188",
        "gmt": null,
        "airport_id": "94",
        "iata_code": "ADX",
        "city_iata_code": "ADX",
        "icao_code": "EGQL",
        "country_iso2": "GB",
        "geoname_id": "6296639",
        "latitude": "56.36667",
        "longitude": "-2.866667",
        "airport_name": "Leuchars",
        "country_name": "United Kingdom",
        "phone_number": null,
        "timezone": "Europe/London"
    },
    {
        "id": "1471189",
        "gmt": "2",
        "airport_id": "95",
        "iata_code": "ADY",
        "city_iata_code": "ADY",
        "icao_code": "FAAL",
        "country_iso2": "ZA",
        "geoname_id": "7668227",
        "latitude": "-22.666668",
        "longitude": "29.05",
        "airport_name": "Alldays",
        "country_name": "South Africa",
        "phone_number": null,
        "timezone": "Africa/Johannesburg"
    },
    {
        "id": "1471190",
        "gmt": "-5",
        "airport_id": "96",
        "iata_code": "ADZ",
        "city_iata_code": "ADZ",
        "icao_code": "SKSP",
        "country_iso2": "CO",
        "geoname_id": "6300759",
        "latitude": "12.586047",
        "longitude": "-81.70221",
        "airport_name": "San Andres Island",
        "country_name": "Colombia",
        "phone_number": null,
        "timezone": "America/Bogota"
    },
    {
        "id": "1471191",
        "gmt": "12",
        "airport_id": "97",
        "iata_code": "AEA",
        "city_iata_code": "AEA",
        "icao_code": "NGTB",
        "country_iso2": "KI",
        "geoname_id": "7521789",
        "latitude": "0.483333",
        "longitude": "173.85",
        "airport_name": "Abemama Atoll",
        "country_name": "Kiribati",
        "phone_number": null,
        "timezone": "Pacific/Tarawa"
    },
    {
        "id": "1471195",
        "gmt": "7",
        "airport_id": "101",
        "iata_code": "AEG",
        "city_iata_code": "AEG",
        "icao_code": "WIME",
        "country_iso2": "ID",
        "geoname_id": "8298724",
        "latitude": "1.399722",
        "longitude": "99.416664",
        "airport_name": "Aek Godang",
        "country_name": "Indonesia",
        "phone_number": null,
        "timezone": "Asia/Jakarta"
    },
    {
        "id": "1471196",
        "gmt": "1",
        "airport_id": "102",
        "iata_code": "AEH",
        "city_iata_code": "AEH",
        "icao_code": "FTTC",
        "country_iso2": "TD",
        "geoname_id": "245786",
        "latitude": "13.851389",
        "longitude": "20.850834",
        "airport_name": "Ab\u00e9ch\u00e9",
        "country_name": null,
        "phone_number": null,
        "timezone": "Africa/Ndjamena"
    },
    {
        "id": "1471199",
        "gmt": "-6",
        "airport_id": "105",
        "iata_code": "AEL",
        "city_iata_code": "AEL",
        "icao_code": "KAEL",
        "country_iso2": "US",
        "geoname_id": "5016033",
        "latitude": "43.65",
        "longitude": "-93.36667",
        "airport_name": "Albert Lea",
        "country_name": "United States",
        "phone_number": null,
        "timezone": "America/Chicago"
    },
    {
        "id": "1471200",
        "gmt": null,
        "airport_id": "106",
        "iata_code": "AEO",
        "city_iata_code": "AEO",
        "icao_code": "GQNA",
        "country_iso2": "MR",
        "geoname_id": "6297233",
        "latitude": "16.709167",
        "longitude": "-9.635556",
        "airport_name": "Aioun El Atrouss",
        "country_name": "Mauritania",
        "phone_number": null,
        "timezone": "Africa/Nouakchott"
    },
    {
        "id": "1471201",
        "gmt": "-3",
        "airport_id": "107",
        "iata_code": "AEP",
        "city_iata_code": "BUE",
        "icao_code": "SABE",
        "country_iso2": "AR",
        "geoname_id": "6301847",
        "latitude": "-34.55622",
        "longitude": "-58.41667",
        "airport_name": "Aeroparque Jorge Newbery",
        "country_name": "Argentina",
        "phone_number": null,
        "timezone": "America/Argentina/Buenos_Aires"
    },
    {
        "id": "1471202",
        "gmt": "3",
        "airport_id": "108",
        "iata_code": "AER",
        "city_iata_code": "AER",
        "icao_code": "URSS",
        "country_iso2": "RU",
        "geoname_id": "6300995",
        "latitude": "43.44884",
        "longitude": "39.941105",
        "airport_name": "Sochi/Adler International Airport",
        "country_name": "Russia",
        "phone_number": null,
        "timezone": "Europe/Moscow"
    },
    {
        "id": "1471203",
        "gmt": "1",
        "airport_id": "109",
        "iata_code": "AES",
        "city_iata_code": "AES",
        "icao_code": "ENAL",
        "country_iso2": "NO",
        "geoname_id": "6296719",
        "latitude": "62.559643",
        "longitude": "6.116605",
        "airport_name": "Vigra",
        "country_name": "Norway",
        "phone_number": null,
        "timezone": "Europe/Oslo"
    },
    {
        "id": "1471204",
        "gmt": "-9",
        "airport_id": "110",
        "iata_code": "AET",
        "city_iata_code": "AET",
        "icao_code": "PFAL",
        "country_iso2": "US",
        "geoname_id": "5879223",
        "latitude": "66.56167",
        "longitude": "-152.65834",
        "airport_name": "Allakaket",
        "country_name": "United States",
        "phone_number": null,
        "timezone": "America/Anchorage"
    },
    {
        "id": "1471205",
        "gmt": "3.30",
        "airport_id": "111",
        "iata_code": "AEU",
        "city_iata_code": "AEU",
        "icao_code": "OIBA",
        "country_iso2": "IR",
        "geoname_id": "6300041",
        "latitude": "25.8875",
        "longitude": "55.041668",
        "airport_name": "Abu Musa",
        "country_name": "Iran",
        "phone_number": null,
        "timezone": "Asia/Tehran"
    },
    {
        "id": "1471206",
        "gmt": "-6",
        "airport_id": "112",
        "iata_code": "AEX",
        "city_iata_code": "AEX",
        "icao_code": "KAEX",
        "country_iso2": "US",
        "geoname_id": "8113669",
        "latitude": "31.321268",
        "longitude": "-92.53958",
        "airport_name": "Alexandria International",
        "country_name": "United States",
        "phone_number": null,
        "timezone": "America/Chicago"
    },
    {
        "id": "1471207",
        "gmt": null,
        "airport_id": "113",
        "iata_code": "AEY",
        "city_iata_code": "AEY",
        "icao_code": "BIAR",
        "country_iso2": "IS",
        "geoname_id": "6295706",
        "latitude": "65.654564",
        "longitude": "-18.075068",
        "airport_name": "Akureyri",
        "country_name": "Iceland",
        "phone_number": null,
        "timezone": "Atlantic/Reykjavik"
    },
    {
        "id": "1471208",
        "gmt": "-3",
        "airport_id": "114",
        "iata_code": "AFA",
        "city_iata_code": "AFA",
        "icao_code": "SAMR",
        "country_iso2": "AR",
        "geoname_id": "6300529",
        "latitude": "-34.58917",
        "longitude": "-68.40056",
        "airport_name": "San Rafael",
        "country_name": "Argentina",
        "phone_number": null,
        "timezone": "America/Argentina/Mendoza"
    },
    {
        "id": "1471209",
        "gmt": "2",
        "airport_id": "115",
        "iata_code": "AFD",
        "city_iata_code": "AFD",
        "icao_code": "FAPA",
        "country_iso2": "ZA",
        "geoname_id": "964433",
        "latitude": "-33.583332",
        "longitude": "26.883333",
        "airport_name": "Port Alfred",
        "country_name": "South Africa",
        "phone_number": null,
        "timezone": "Africa/Johannesburg"
    },
    {
        "id": "1471210",
        "gmt": "-7",
        "airport_id": "116",
        "iata_code": "AFF",
        "city_iata_code": "COS",
        "icao_code": "KAFF",
        "country_iso2": "US",
        "geoname_id": "5442475",
        "latitude": "38.833332",
        "longitude": "-104.7",
        "airport_name": "USAF Academy Airstrip",
        "country_name": "United States",
        "phone_number": null,
        "timezone": "America/Denver"
    },
    {
        "id": "1471211",
        "gmt": "-5",
        "airport_id": "117",
        "iata_code": "AFI",
        "city_iata_code": "AFI",
        "icao_code": "SKAM",
        "country_iso2": "CO",
        "geoname_id": "7730806",
        "latitude": "6.916667",
        "longitude": "-75.066666",
        "airport_name": "Amalfi",
        "country_name": "Colombia",
        "phone_number": null,
        "timezone": "America/Bogota"
    },
    {
        "id": "1471213",
        "gmt": "-4",
        "airport_id": "119",
        "iata_code": "AFL",
        "city_iata_code": "AFL",
        "icao_code": "SBAT",
        "country_iso2": "BR",
        "geoname_id": "6316343",
        "latitude": "-9.872456",
        "longitude": "-56.104767",
        "airport_name": "Alta Floresta",
        "country_name": "Brazil",
        "phone_number": null,
        "timezone": "America/Cuiaba"
    },
    {
        "id": "1471214",
        "gmt": "-5",
        "airport_id": "120",
        "iata_code": "AFN",
        "city_iata_code": "AFN",
        "icao_code": "KAFN",
        "country_iso2": "US",
        "geoname_id": "5088066",
        "latitude": "42.833332",
        "longitude": "-72.066666",
        "airport_name": "Municipal",
        "country_name": "United States",
        "phone_number": null,
        "timezone": "America/New_York"
    },
    {
        "id": "1471215",
        "gmt": "-7",
        "airport_id": "121",
        "iata_code": "AFO",
        "city_iata_code": "AFO",
        "icao_code": "KAFO",
        "country_iso2": "US",
        "geoname_id": "5816866",
        "latitude": "42.733334",
        "longitude": "-110.933334",
        "airport_name": "Municipal",
        "country_name": "United States",
        "phone_number": null,
        "timezone": "America/Denver"
    },
    {
        "id": "1471217",
        "gmt": "5",
        "airport_id": "123",
        "iata_code": "AFS",
        "city_iata_code": "AFS",
        "icao_code": "UTSN",
        "country_iso2": "UZ",
        "geoname_id": "7730807",
        "latitude": "41.61361",
        "longitude": "64.233055",
        "airport_name": "Zarafshan",
        "country_name": "Uzbekistan",
        "phone_number": null,
        "timezone": "Asia/Samarkand"
    },
    {
        "id": "1471218",
        "gmt": "11",
        "airport_id": "124",
        "iata_code": "AFT",
        "city_iata_code": "AFT",
        "icao_code": "AGAF",
        "country_iso2": "SB",
        "geoname_id": "8298931",
        "latitude": "-9.2",
        "longitude": "160.85",
        "airport_name": "Afutara Aerodrome",
        "country_name": "Solomon Islands",
        "phone_number": null,
        "timezone": "Pacific/Guadalcanal"
    },
    {
        "id": "1471219",
        "gmt": "-6",
        "airport_id": "125",
        "iata_code": "AFW",
        "city_iata_code": "DFW",
        "icao_code": "KAFW",
        "country_iso2": "US",
        "geoname_id": "4691932",
        "latitude": "32.986668",
        "longitude": "-97.316666",
        "airport_name": "Fort Worth Alliance",
        "country_name": "United States",
        "phone_number": null,
        "timezone": "America/Chicago"
    },
    {
        "id": "1471220",
        "gmt": "3",
        "airport_id": "126",
        "iata_code": "AFY",
        "city_iata_code": "AFY",
        "icao_code": "LTAH",
        "country_iso2": "TR",
        "geoname_id": "6299728",
        "latitude": "38.733334",
        "longitude": "30.6",
        "airport_name": "Afyon",
        "country_name": "Turkey",
        "phone_number": null,
        "timezone": "Europe/Istanbul"
    },
    {
        "id": "1472281",
        "gmt": "-5",
        "airport_id": "1187",
        "iata_code": "CCO",
        "city_iata_code": "CCO",
        "icao_code": "SKCI",
        "country_iso2": "CO",
        "geoname_id": "7730906",
        "latitude": "4.566667",
        "longitude": "-71.333336",
        "airport_name": "Carimagua",
        "country_name": "Colombia",
        "phone_number": null,
        "timezone": "America/Bogota"
    },
    {
        "id": "1472282",
        "gmt": "-4",
        "airport_id": "1188",
        "iata_code": "CCP",
        "city_iata_code": "CCP",
        "icao_code": "SCIE",
        "country_iso2": "CL",
        "geoname_id": "6300702",
        "latitude": "-36.777122",
        "longitude": "-73.05944",
        "airport_name": "Carriel Sur",
        "country_name": null,
        "phone_number": null,
        "timezone": "America/Santiago"
    },
    {
        "id": "1472284",
        "gmt": "-8",
        "airport_id": "1190",
        "iata_code": "CCR",
        "city_iata_code": "CCR",
        "icao_code": "KCCR",
        "country_iso2": "US",
        "geoname_id": "5339111",
        "latitude": "37.988888",
        "longitude": "-122.05556",
        "airport_name": "Buchanan Field",
        "country_name": "United States",
        "phone_number": null,
        "timezone": "America/Los_Angeles"
    },
    {
        "id": "1472285",
        "gmt": "-4",
        "airport_id": "1191",
        "iata_code": "CCS",
        "city_iata_code": "CCS",
        "icao_code": "SVMI",
        "country_iso2": "VE",
        "geoname_id": "3646738",
        "latitude": "10.596942",
        "longitude": "-67.00551",
        "airport_name": "Simon Bolivar International Airport",
        "country_name": "Venezuela",
        "phone_number": null,
        "timezone": "America/Caracas"
    },
    {
        "id": "1472286",
        "gmt": "5.30",
        "airport_id": "1192",
        "iata_code": "CCU",
        "city_iata_code": "CCU",
        "icao_code": "VECC",
        "country_iso2": "IN",
        "geoname_id": "6301069",
        "latitude": "22.64531",
        "longitude": "88.43931",
        "airport_name": "Netaji Subhas Chandra",
        "country_name": "India",
        "phone_number": null,
        "timezone": "Asia/Kolkata"
    },
    {
        "id": "1472287",
        "gmt": "11",
        "airport_id": "1193",
        "iata_code": "CCV",
        "city_iata_code": "CCV",
        "icao_code": "NVSF",
        "country_iso2": "VU",
        "geoname_id": "7730709",
        "latitude": "-16.2",
        "longitude": "167.5",
        "airport_name": "Craig Cove",
        "country_name": "Vanuatu",
        "phone_number": null,
        "timezone": "Pacific/Efate"
    },
    {
        "id": "1472288",
        "gmt": "9.30",
        "airport_id": "1194",
        "iata_code": "CCW",
        "city_iata_code": "CCW",
        "icao_code": "YCWL",
        "country_iso2": "AU",
        "geoname_id": "7730907",
        "latitude": "-33.63333",
        "longitude": "136.83333",
        "airport_name": "Cowell",
        "country_name": "Australia",
        "phone_number": null,
        "timezone": "Australia/Adelaide"
    },
    {
        "id": "1472290",
        "gmt": "-6",
        "airport_id": "1196",
        "iata_code": "CCY",
        "city_iata_code": "CCY",
        "icao_code": "KCCY",
        "country_iso2": "US",
        "geoname_id": "4851170",
        "latitude": "43.066666",
        "longitude": "-92.683334",
        "airport_name": "Municipal",
        "country_name": "United States",
        "phone_number": null,
        "timezone": "America/Chicago"
    },
    {
        "id": "1472291",
        "gmt": "-5",
        "airport_id": "1197",
        "iata_code": "CCZ",
        "city_iata_code": "CCZ",
        "icao_code": "MYBC",
        "country_iso2": "BS",
        "geoname_id": null,
        "latitude": "25.4175",
        "longitude": "-77.881386",
        "airport_name": "Chub Cay",
        "country_name": "Bahamas",
        "phone_number": null,
        "timezone": "America/Nassau"
    },
    {
        "id": "1472292",
        "gmt": "9.30",
        "airport_id": "1198",
        "iata_code": "CDA",
        "city_iata_code": "CDA",
        "icao_code": "YCOO",
        "country_iso2": "AU",
        "geoname_id": "7730908",
        "latitude": "-12.905278",
        "longitude": "132.5225",
        "airport_name": "Cooinda",
        "country_name": "Australia",
        "phone_number": null,
        "timezone": "Australia/Darwin"
    },
    {
        "id": "1472293",
        "gmt": "-9",
        "airport_id": "1199",
        "iata_code": "CDB",
        "city_iata_code": "CDB",
        "icao_code": "PACD",
        "country_iso2": "US",
        "geoname_id": "5859684",
        "latitude": "55.20457",
        "longitude": "-162.71774",
        "airport_name": "Cold Bay",
        "country_name": "United States",
        "phone_number": null,
        "timezone": "America/Nome"
    },
    {
        "id": "1472294",
        "gmt": "-7",
        "airport_id": "1200",
        "iata_code": "CDC",
        "city_iata_code": "CDC",
        "icao_code": "KCDC",
        "country_iso2": "US",
        "geoname_id": "5536638",
        "latitude": "37.7025",
        "longitude": "-113.09611",
        "airport_name": "Cedar City",
        "country_name": "United States",
        "phone_number": null,
        "timezone": "America/Denver"
    },
    {
        "id": "1472295",
        "gmt": "-6",
        "airport_id": "1201",
        "iata_code": "CDD",
        "city_iata_code": "CDD",
        "icao_code": "MHCU",
        "country_iso2": "HN",
        "geoname_id": "7730658",
        "latitude": "15.322222",
        "longitude": "-83.602776",
        "airport_name": "Cauquira",
        "country_name": "Honduras",
        "phone_number": null,
        "timezone": "America/Tegucigalpa"
    },
    {
        "id": "1472297",
        "gmt": "1",
        "airport_id": "1203",
        "iata_code": "CDG",
        "city_iata_code": "PAR",
        "icao_code": "LFPG",
        "country_iso2": "FR",
        "geoname_id": "6269554",
        "latitude": "49.003197",
        "longitude": "2.567023",
        "airport_name": "Charles De Gaulle",
        "country_name": "France",
        "phone_number": "(01) 4862 121",
        "timezone": "Europe/Paris"
    },
    {
        "id": "1472298",
        "gmt": "-6",
        "airport_id": "1204",
        "iata_code": "CDH",
        "city_iata_code": "CDH",
        "icao_code": "KCDH",
        "country_iso2": "US",
        "geoname_id": "4113887",
        "latitude": "33.583332",
        "longitude": "-92.833336",
        "airport_name": "Harrell Field",
        "country_name": "United States",
        "phone_number": null,
        "timezone": "America/Chicago"
    },
    {
        "id": "1472300",
        "gmt": "-3",
        "airport_id": "1206",
        "iata_code": "CDJ",
        "city_iata_code": "CDJ",
        "icao_code": "SBAA",
        "country_iso2": "BR",
        "geoname_id": "6300594",
        "latitude": "-8.233333",
        "longitude": "-49.283333",
        "airport_name": "Conceicao Do Araguaia",
        "country_name": "Brazil",
        "phone_number": null,
        "timezone": "America/Belem"
    },
    {
        "id": "1472301",
        "gmt": "-5",
        "airport_id": "1207",
        "iata_code": "CDK",
        "city_iata_code": "CDK",
        "icao_code": "KCDK",
        "country_iso2": "US",
        "geoname_id": "4156693",
        "latitude": "29.133333",
        "longitude": "-83.03333",
        "airport_name": "Lewis",
        "country_name": "United States",
        "phone_number": null,
        "timezone": "America/New_York"
    },
    {
        "id": "1472305",
        "gmt": "5.30",
        "airport_id": "1211",
        "iata_code": "CDP",
        "city_iata_code": "CDP",
        "icao_code": "VOCP",
        "country_iso2": "IN",
        "geoname_id": "6301123",
        "latitude": "14.516667",
        "longitude": "78.78333",
        "airport_name": "Cuddapah",
        "country_name": "India",
        "phone_number": null,
        "timezone": "Asia/Kolkata"
    },
    {
        "id": "1472306",
        "gmt": "10",
        "airport_id": "1212",
        "iata_code": "CDQ",
        "city_iata_code": "CDQ",
        "icao_code": "YCRY",
        "country_iso2": "AU",
        "geoname_id": "7730909",
        "latitude": "-18.3",
        "longitude": "142.25",
        "airport_name": "Croydon",
        "country_name": "Australia",
        "phone_number": null,
        "timezone": "Australia/Brisbane"
    },
    {
        "id": "1472307",
        "gmt": "-7",
        "airport_id": "1213",
        "iata_code": "CDR",
        "city_iata_code": "CDR",
        "icao_code": "KCDR",
        "country_iso2": "US",
        "geoname_id": "5694177",
        "latitude": "42.835",
        "longitude": "-103.09778",
        "airport_name": "Chadron",
        "country_name": "United States",
        "phone_number": null,
        "timezone": "America/Denver"
    },
    {
        "id": "1472308",
        "gmt": "-6",
        "airport_id": "1214",
        "iata_code": "CDS",
        "city_iata_code": "CDS",
        "icao_code": "KCDS",
        "country_iso2": "US",
        "geoname_id": "5518765",
        "latitude": "37.416668",
        "longitude": "-100.21667",
        "airport_name": "Childress",
        "country_name": "United States",
        "phone_number": null,
        "timezone": "America/Chicago"
    },
    {
        "id": "1472309",
        "gmt": "1",
        "airport_id": "1215",
        "iata_code": "CDT",
        "city_iata_code": "CDT",
        "icao_code": "LECN",
        "country_iso2": "ES",
        "geoname_id": "8260997",
        "latitude": "40.2097",
        "longitude": "0.06972",
        "airport_name": "Castellon",
        "country_name": "Spain",
        "phone_number": null,
        "timezone": "Europe/Madrid"
    },
    {
        "id": "1472310",
        "gmt": "10",
        "airport_id": "1216",
        "iata_code": "CDU",
        "city_iata_code": "CDU",
        "icao_code": "YSCN",
        "country_iso2": "AU",
        "geoname_id": "6301345",
        "latitude": "-15.45",
        "longitude": "124.416664",
        "airport_name": "Camden",
        "country_name": "Australia",
        "phone_number": null,
        "timezone": "Australia/Sydney"
    },
    {
        "id": "1472311",
        "gmt": "-9",
        "airport_id": "1217",
        "iata_code": "CDV",
        "city_iata_code": "CDV",
        "icao_code": "PACV",
        "country_iso2": "US",
        "geoname_id": "5868732",
        "latitude": "60.493057",
        "longitude": "-145.47",
        "airport_name": "Mudhole Smith",
        "country_name": "United States",
        "phone_number": null,
        "timezone": "America/Anchorage"
    },
    {
        "id": "1472312",
        "gmt": "-5",
        "airport_id": "1218",
        "iata_code": "CDW",
        "city_iata_code": "CDW",
        "icao_code": "KCDW",
        "country_iso2": "US",
        "geoname_id": "5097708",
        "latitude": "40.833332",
        "longitude": "-74.26667",
        "airport_name": "Caldwell Wright",
        "country_name": "United States",
        "phone_number": null,
        "timezone": "America/New_York"
    },
    {
        "id": "1472313",
        "gmt": "8",
        "airport_id": "1219",
        "iata_code": "CDY",
        "city_iata_code": "CDY",
        "icao_code": "RPMU",
        "country_iso2": "PH",
        "geoname_id": "7730761",
        "latitude": "7.013611",
        "longitude": "118.495",
        "airport_name": "Cagayan De Sulu",
        "country_name": "Philippines",
        "phone_number": null,
        "timezone": "Asia/Manila"
    },
    {
        "id": "1472316",
        "gmt": "8",
        "airport_id": "1222",
        "iata_code": "CEB",
        "city_iata_code": "CEB",
        "icao_code": "RPMC",
        "country_iso2": "PH",
        "geoname_id": "6452620",
        "latitude": "10.313333",
        "longitude": "123.98278",
        "airport_name": "Mactan-Cebu International",
        "country_name": "Philippines",
        "phone_number": null,
        "timezone": "Asia/Manila"
    },
    {
        "id": "1472317",
        "gmt": "-8",
        "airport_id": "1223",
        "iata_code": "CEC",
        "city_iata_code": "CEC",
        "icao_code": "KCEC",
        "country_iso2": "US",
        "geoname_id": "5562087",
        "latitude": "41.78",
        "longitude": "-124.23583",
        "airport_name": "Mc Namara Field",
        "country_name": "United States",
        "phone_number": null,
        "timezone": "America/Los_Angeles"
    },
    {
        "id": "1472318",
        "gmt": "9.30",
        "airport_id": "1224",
        "iata_code": "CED",
        "city_iata_code": "CED",
        "icao_code": "YCDU",
        "country_iso2": "AU",
        "geoname_id": "6301325",
        "latitude": "-32.12378",
        "longitude": "133.70122",
        "airport_name": "Ceduna",
        "country_name": "Australia",
        "phone_number": null,
        "timezone": "Australia/Adelaide"
    },
    {
        "id": "1472319",
        "gmt": "3",
        "airport_id": "1225",
        "iata_code": "CEE",
        "city_iata_code": "CEE",
        "icao_code": "ULBC",
        "country_iso2": "RU",
        "geoname_id": "7730189",
        "latitude": "59.283333",
        "longitude": "38.066666",
        "airport_name": "Cherepovets",
        "country_name": "Russia",
        "phone_number": null,
        "timezone": "Europe/Moscow"
    },
    {
        "id": "1472320",
        "gmt": "-5",
        "airport_id": "1226",
        "iata_code": "CEF",
        "city_iata_code": "CEF",
        "icao_code": "KCEF",
        "country_iso2": "US",
        "geoname_id": "4955283",
        "latitude": "42.183376",
        "longitude": "-72.55383",
        "airport_name": "Westover ARB/Metropolitan",
        "country_name": "United States",
        "phone_number": null,
        "timezone": "America/New_York"
    },
    {
        "id": "1472321",
        "gmt": null,
        "airport_id": "1227",
        "iata_code": "CEG",
        "city_iata_code": "CEG",
        "icao_code": "EGNR",
        "country_iso2": "GB",
        "geoname_id": "6296609",
        "latitude": "53.166668",
        "longitude": "-2.916667",
        "airport_name": "Chester",
        "country_name": "United Kingdom",
        "phone_number": null,
        "timezone": "Europe/London"
    },
    {
        "id": "1472323",
        "gmt": "7",
        "airport_id": "1229",
        "iata_code": "CEI",
        "city_iata_code": "CEI",
        "icao_code": "VTCT",
        "country_iso2": "TH",
        "geoname_id": "6452619",
        "latitude": "19.954609",
        "longitude": "99.878815",
        "airport_name": "Chiang Rai",
        "country_name": "Thailand",
        "phone_number": null,
        "timezone": "Asia/Bangkok"
    },
    {
        "id": "1472324",
        "gmt": "5",
        "airport_id": "1230",
        "iata_code": "CEK",
        "city_iata_code": "CEK",
        "icao_code": "USCC",
        "country_iso2": "RU",
        "geoname_id": "6300999",
        "latitude": "55.297504",
        "longitude": "61.51235",
        "airport_name": "Chelyabinsk",
        "country_name": "Russia",
        "phone_number": null,
        "timezone": "Asia/Yekaterinburg"
    },
    {
        "id": "1472325",
        "gmt": "-9",
        "airport_id": "1231",
        "iata_code": "CEM",
        "city_iata_code": "CEM",
        "icao_code": "PACE",
        "country_iso2": "US",
        "geoname_id": "5858896",
        "latitude": "65.57472",
        "longitude": "-144.78194",
        "airport_name": "Central",
        "country_name": "United States",
        "phone_number": null,
        "timezone": "America/Anchorage"
    },
    {
        "id": "1472326",
        "gmt": "-7",
        "airport_id": "1232",
        "iata_code": "CEN",
        "city_iata_code": "CEN",
        "icao_code": "MMCN",
        "country_iso2": "MX",
        "geoname_id": "6299834",
        "latitude": "27.391945",
        "longitude": "-109.839165",
        "airport_name": "Ciudad Obregon",
        "country_name": "Mexico",
        "phone_number": null,
        "timezone": "America/Hermosillo"
    },
    {
        "id": "1472327",
        "gmt": "1",
        "airport_id": "1233",
        "iata_code": "CEO",
        "city_iata_code": "CEO",
        "icao_code": "FNWK",
        "country_iso2": "AO",
        "geoname_id": "8261051",
        "latitude": "9.308333",
        "longitude": "124.73055",
        "airport_name": "Waco Kungo",
        "country_name": "Angola",
        "phone_number": null,
        "timezone": "Africa/Luanda"
    },
    {
        "id": "1472328",
        "gmt": "-4",
        "airport_id": "1234",
        "iata_code": "CEP",
        "city_iata_code": "CEP",
        "icao_code": "SLCP",
        "country_iso2": "BO",
        "geoname_id": "6300770",
        "latitude": "-16.233334",
        "longitude": "-62.083332",
        "airport_name": "Concepcion",
        "country_name": "Bolivia",
        "phone_number": null,
        "timezone": "America/La_Paz"
    },
    {
        "id": "1472329",
        "gmt": "1",
        "airport_id": "1235",
        "iata_code": "CEQ",
        "city_iata_code": "CEQ",
        "icao_code": "LFMD",
        "country_iso2": "FR",
        "geoname_id": "6299412",
        "latitude": "43.54639",
        "longitude": "6.954167",
        "airport_name": "Mandelieu",
        "country_name": "France",
        "phone_number": null,
        "timezone": "Europe/Paris"
    },
    {
        "id": "1472330",
        "gmt": "1",
        "airport_id": "1236",
        "iata_code": "CER",
        "city_iata_code": "CER",
        "icao_code": "LFRC",
        "country_iso2": "FR",
        "geoname_id": "6299452",
        "latitude": "49.65111",
        "longitude": "-1.465278",
        "airport_name": "Maupertus",
        "country_name": "France",
        "phone_number": null,
        "timezone": "Europe/Paris"
    },
    {
        "id": "1472331",
        "gmt": "10",
        "airport_id": "1237",
        "iata_code": "CES",
        "city_iata_code": "CES",
        "icao_code": "YCNK",
        "country_iso2": "AU",
        "geoname_id": "7668703",
        "latitude": "-32.833332",
        "longitude": "151.35",
        "airport_name": "Cessnock",
        "country_name": "Australia",
        "phone_number": null,
        "timezone": "Australia/Sydney"
    },
    {
        "id": "1472333",
        "gmt": "-5",
        "airport_id": "1239",
        "iata_code": "CEU",
        "city_iata_code": "CEU",
        "icao_code": "KCEU",
        "country_iso2": "US",
        "geoname_id": "4574989",
        "latitude": "34.683334",
        "longitude": "-82.833336",
        "airport_name": "Oconee County",
        "country_name": "United States",
        "phone_number": null,
        "timezone": "America/New_York"
    },
    {
        "id": "1472335",
        "gmt": "-6",
        "airport_id": "1241",
        "iata_code": "CEW",
        "city_iata_code": "CEW",
        "icao_code": "KCEW",
        "country_iso2": "US",
        "geoname_id": "4152311",
        "latitude": "30.766666",
        "longitude": "-86.566666",
        "airport_name": "Bob Sikes",
        "country_name": "United States",
        "phone_number": null,
        "timezone": "America/Chicago"
    },
    {
        "id": "1472338",
        "gmt": "-7",
        "airport_id": "1244",
        "iata_code": "CEZ",
        "city_iata_code": "CEZ",
        "icao_code": "KCEZ",
        "country_iso2": "US",
        "geoname_id": "5418118",
        "latitude": "37.302776",
        "longitude": "-108.62722",
        "airport_name": "Montezuma County",
        "country_name": "United States",
        "phone_number": null,
        "timezone": "America/Denver"
    },
    {
        "id": "1472340",
        "gmt": "-3",
        "airport_id": "1246",
        "iata_code": "CFB",
        "city_iata_code": "CFB",
        "icao_code": "SBCB",
        "country_iso2": "BR",
        "geoname_id": "7668433",
        "latitude": "-22.925",
        "longitude": "-42.07861",
        "airport_name": "Cabo Frio",
        "country_name": "Brazil",
        "phone_number": null,
        "timezone": "America/Sao_Paulo"
    },
    {
        "id": "1472341",
        "gmt": "-3",
        "airport_id": "1247",
        "iata_code": "CFC",
        "city_iata_code": "CFC",
        "icao_code": "SBCD",
        "country_iso2": "BR",
        "geoname_id": "7910371",
        "latitude": "-26.790556",
        "longitude": "-50.941387",
        "airport_name": "Cacador",
        "country_name": "Brazil",
        "phone_number": null,
        "timezone": "America/Sao_Paulo"
    },
    {
        "id": "1472343",
        "gmt": "1",
        "airport_id": "1249",
        "iata_code": "CFE",
        "city_iata_code": "CFE",
        "icao_code": "LFLC",
        "country_iso2": "FR",
        "geoname_id": "6299399",
        "latitude": "45.78032",
        "longitude": "3.163893",
        "airport_name": "Clermont/Ferrand Auvergne International (Aulnat)",
        "country_name": "France",
        "phone_number": null,
        "timezone": "Europe/Paris"
    },
    {
        "id": "1472344",
        "gmt": "1",
        "airport_id": "1250",
        "iata_code": "CFF",
        "city_iata_code": "CFF",
        "icao_code": "FNCF",
        "country_iso2": "AO",
        "geoname_id": "7768322",
        "latitude": "-8.766667",
        "longitude": "18",
        "airport_name": "Cafunfo",
        "country_name": "Angola",
        "phone_number": null,
        "timezone": "Africa/Luanda"
    },
    {
        "id": "1472345",
        "gmt": "-5",
        "airport_id": "1251",
        "iata_code": "CFG",
        "city_iata_code": "CFG",
        "icao_code": "MUCF",
        "country_iso2": "CU",
        "geoname_id": "6299918",
        "latitude": "22.15",
        "longitude": "-80.41417",
        "airport_name": "Cienfuegos",
        "country_name": "Cuba",
        "phone_number": null,
        "timezone": "America/Havana"
    },
    {
        "id": "1472347",
        "gmt": "9.30",
        "airport_id": "1253",
        "iata_code": "CFI",
        "city_iata_code": "CFI",
        "icao_code": "YCFD",
        "country_iso2": "AU",
        "geoname_id": "7730911",
        "latitude": "-17.033333",
        "longitude": "131.28334",
        "airport_name": "Camfield",
        "country_name": "Australia",
        "phone_number": null,
        "timezone": "Australia/Darwin"
    },
    {
        "id": "1472348",
        "gmt": "1",
        "airport_id": "1254",
        "iata_code": "CFK",
        "city_iata_code": "CFK",
        "icao_code": "DAOI",
        "country_iso2": "DZ",
        "geoname_id": "6296379",
        "latitude": "36.212223",
        "longitude": "1.331667",
        "airport_name": "Aboubakr Belkaid",
        "country_name": null,
        "phone_number": null,
        "timezone": "Africa/Algiers"
    },
    {
        "id": "1472349",
        "gmt": null,
        "airport_id": "1255",
        "iata_code": "CFN",
        "city_iata_code": "CFN",
        "icao_code": "EIDL",
        "country_iso2": "IE",
        "geoname_id": "7668216",
        "latitude": "55.041668",
        "longitude": "-8.340278",
        "airport_name": "Donegal",
        "country_name": "Ireland",
        "phone_number": null,
        "timezone": "Europe/Dublin"
    },
    {
        "id": "1472350",
        "gmt": "-4",
        "airport_id": "1256",
        "iata_code": "CFO",
        "city_iata_code": "CFO",
        "icao_code": "SJHG",
        "country_iso2": "BR",
        "geoname_id": "7730912",
        "latitude": "-10.633333",
        "longitude": "-51.566666",
        "airport_name": "Confreza",
        "country_name": "Brazil",
        "phone_number": null,
        "timezone": "America/Cuiaba"
    },
    {
        "id": "1472353",
        "gmt": "1",
        "airport_id": "1259",
        "iata_code": "CFR",
        "city_iata_code": "CFR",
        "icao_code": "LFRK",
        "country_iso2": "FR",
        "geoname_id": "6299456",
        "latitude": "49.183437",
        "longitude": "-0.459276",
        "airport_name": "Carpiquet",
        "country_name": "France",
        "phone_number": null,
        "timezone": "Europe/Paris"
    },
    {
        "id": "1472354",
        "gmt": "10",
        "airport_id": "1260",
        "iata_code": "CFS",
        "city_iata_code": "CFS",
        "icao_code": "YSCH",
        "country_iso2": "AU",
        "geoname_id": "6301343",
        "latitude": "-30.322863",
        "longitude": "153.1153",
        "airport_name": "Coffs Harbour",
        "country_name": "Australia",
        "phone_number": null,
        "timezone": "Australia/Sydney"
    },
    {
        "id": "1472355",
        "gmt": "-7",
        "airport_id": "1261",
        "iata_code": "CFT",
        "city_iata_code": "CFT",
        "icao_code": "KCFT",
        "country_iso2": "US",
        "geoname_id": "5296838",
        "latitude": "33.05",
        "longitude": "-109.3",
        "airport_name": "Morenci",
        "country_name": "United States",
        "phone_number": null,
        "timezone": "America/Phoenix"
    },
    {
        "id": "1472356",
        "gmt": "2",
        "airport_id": "1262",
        "iata_code": "CFU",
        "city_iata_code": "CFU",
        "icao_code": "LGKR",
        "country_iso2": "GR",
        "geoname_id": "6299495",
        "latitude": "39.60784",
        "longitude": "19.914644",
        "airport_name": "Ioannis Kapodistrias",
        "country_name": "Greece",
        "phone_number": null,
        "timezone": "Europe/Athens"
    },
    {
        "id": "1472357",
        "gmt": "-6",
        "airport_id": "1263",
        "iata_code": "CFV",
        "city_iata_code": "CFV",
        "icao_code": "KCFV",
        "country_iso2": "US",
        "geoname_id": "4269794",
        "latitude": "37.033333",
        "longitude": "-95.61667",
        "airport_name": "Municipal",
        "country_name": "United States",
        "phone_number": null,
        "timezone": "America/Chicago"
    },
    {
        "id": "1472359",
        "gmt": "-4",
        "airport_id": "1265",
        "iata_code": "CGB",
        "city_iata_code": "CGB",
        "icao_code": "SBCY",
        "country_iso2": "BR",
        "geoname_id": "6300617",
        "latitude": "-15.651725",
        "longitude": "-56.120266",
        "airport_name": "International Airport Marechal Rondon",
        "country_name": "Brazil",
        "phone_number": null,
        "timezone": "America/Cuiaba"
    },
    {
        "id": "1472361",
        "gmt": "8",
        "airport_id": "1267",
        "iata_code": "CGD",
        "city_iata_code": "CGD",
        "icao_code": "ZGCD",
        "country_iso2": "CN",
        "geoname_id": "7730285",
        "latitude": "28.924467",
        "longitude": "111.63886",
        "airport_name": "Changde",
        "country_name": "China",
        "phone_number": null,
        "timezone": "Asia/Shanghai"
    },
    {
        "id": "1472362",
        "gmt": "-5",
        "airport_id": "1268",
        "iata_code": "CGE",
        "city_iata_code": "CGE",
        "icao_code": "KCGE",
        "country_iso2": "US",
        "geoname_id": "4350190",
        "latitude": "38.566666",
        "longitude": "-76.083336",
        "airport_name": "Cambridge",
        "country_name": "United States",
        "phone_number": null,
        "timezone": "America/New_York"
    },
    {
        "id": "1472365",
        "gmt": "-3",
        "airport_id": "1271",
        "iata_code": "CGH",
        "city_iata_code": "SAO",
        "icao_code": "SBSP",
        "country_iso2": "BR",
        "geoname_id": "6301857",
        "latitude": "-23.626902",
        "longitude": "-46.659557",
        "airport_name": "Congonhas International Airport",
        "country_name": "Brazil",
        "phone_number": null,
        "timezone": "America/Sao_Paulo"
    },
    {
        "id": "1472366",
        "gmt": "-6",
        "airport_id": "1272",
        "iata_code": "CGI",
        "city_iata_code": "CGI",
        "icao_code": "KCGI",
        "country_iso2": "US",
        "geoname_id": "4379969",
        "latitude": "37.22361",
        "longitude": "-89.57167",
        "airport_name": "Cape Girardeau",
        "country_name": "United States",
        "phone_number": null,
        "timezone": "America/Chicago"
    },
    {
        "id": "1472368",
        "gmt": "7",
        "airport_id": "1274",
        "iata_code": "CGK",
        "city_iata_code": "JKT",
        "icao_code": "WIII",
        "country_iso2": "ID",
        "geoname_id": "6301878",
        "latitude": "-6.130643",
        "longitude": "106.655525",
        "airport_name": "Soekarno-Hatta International",
        "country_name": "Indonesia",
        "phone_number": null,
        "timezone": "Asia/Jakarta"
    },
    {
        "id": "1472370",
        "gmt": "1",
        "airport_id": "1276",
        "iata_code": "CGN",
        "city_iata_code": "CGN",
        "icao_code": "EDDK",
        "country_iso2": "DE",
        "geoname_id": "6296510",
        "latitude": "50.878365",
        "longitude": "7.122224",
        "airport_name": "Cologne/bonn",
        "country_name": "Germany",
        "phone_number": null,
        "timezone": "Europe/Berlin"
    },
    {
        "id": "1472371",
        "gmt": "8",
        "airport_id": "1277",
        "iata_code": "CGO",
        "city_iata_code": "CGO",
        "icao_code": "ZHCC",
        "country_iso2": "CN",
        "geoname_id": "6301367",
        "latitude": "34.52752",
        "longitude": "113.84024",
        "airport_name": "Zhengzhou",
        "country_name": "China",
        "phone_number": null,
        "timezone": "Asia/Shanghai"
    },
    {
        "id": "1472372",
        "gmt": "6",
        "airport_id": "1278",
        "iata_code": "CGP",
        "city_iata_code": "CGP",
        "icao_code": "VGEG",
        "country_iso2": "BD",
        "geoname_id": "6301082",
        "latitude": "22.245201",
        "longitude": "91.81516",
        "airport_name": "Patenga",
        "country_name": "Bangladesh",
        "phone_number": null,
        "timezone": "Asia/Dhaka"
    },
    {
        "id": "1472373",
        "gmt": "8",
        "airport_id": "1279",
        "iata_code": "CGQ",
        "city_iata_code": "CGQ",
        "icao_code": "ZYCC",
        "country_iso2": "CN",
        "geoname_id": "6301398",
        "latitude": "43.902836",
        "longitude": "125.217545",
        "airport_name": "Changchun",
        "country_name": "China",
        "phone_number": null,
        "timezone": "Asia/Shanghai"
    },
    {
        "id": "1472374",
        "gmt": "-4",
        "airport_id": "1280",
        "iata_code": "CGR",
        "city_iata_code": "CGR",
        "icao_code": "SBCG",
        "country_iso2": "BR",
        "geoname_id": "6300610",
        "latitude": "-20.456991",
        "longitude": "-54.668873",
        "airport_name": "International Airport Campo Grande",
        "country_name": "Brazil",
        "phone_number": null,
        "timezone": "America/Campo_Grande"
    },
    {
        "id": "1472375",
        "gmt": "-5",
        "airport_id": "1281",
        "iata_code": "CGS",
        "city_iata_code": "CGS",
        "icao_code": "KCGS",
        "country_iso2": "US",
        "geoname_id": "4351978",
        "latitude": "33.666668",
        "longitude": "-84.45",
        "airport_name": "College Park",
        "country_name": "United States",
        "phone_number": null,
        "timezone": "America/New_York"
    },
    {
        "id": "1472378",
        "gmt": "8.45",
        "airport_id": "1284",
        "iata_code": "CGV",
        "city_iata_code": "CGV",
        "icao_code": "YCAG",
        "country_iso2": "AU",
        "geoname_id": "7730914",
        "latitude": "-32.266666",
        "longitude": "125.46667",
        "airport_name": "Caiguna",
        "country_name": "Australia",
        "phone_number": null,
        "timezone": "Australia/Eucla"
    },
    {
        "id": "1472379",
        "gmt": "8",
        "airport_id": "1285",
        "iata_code": "CGY",
        "city_iata_code": "CGY",
        "icao_code": "RPML",
        "country_iso2": "PH",
        "geoname_id": null,
        "latitude": "8.407744",
        "longitude": "124.61157",
        "airport_name": "Cagayan De Oro Domestic Airport",
        "country_name": "Philippines",
        "phone_number": null,
        "timezone": "Asia/Manila"
    },
    {
        "id": "1472380",
        "gmt": "-7",
        "airport_id": "1286",
        "iata_code": "CGZ",
        "city_iata_code": "CGZ",
        "icao_code": "KCGZ",
        "country_iso2": "US",
        "geoname_id": "5288645",
        "latitude": "32.88333",
        "longitude": "-111.75",
        "airport_name": "Municipal",
        "country_name": "United States",
        "phone_number": null,
        "timezone": "America/Phoenix"
    },
    {
        "id": "1472381",
        "gmt": "-5",
        "airport_id": "1287",
        "iata_code": "CHA",
        "city_iata_code": "CHA",
        "icao_code": "KCHA",
        "country_iso2": "US",
        "geoname_id": "4638375",
        "latitude": "35.036926",
        "longitude": "-85.197784",
        "airport_name": "Lovell Field",
        "country_name": "United States",
        "phone_number": null,
        "timezone": "America/New_York"
    },
    {
        "id": "1472383",
        "gmt": "12",
        "airport_id": "1289",
        "iata_code": "CHC",
        "city_iata_code": "CHC",
        "icao_code": "NZCH",
        "country_iso2": "NZ",
        "geoname_id": "6220393",
        "latitude": "-43.488655",
        "longitude": "172.5389",
        "airport_name": "Christchurch International",
        "country_name": "New Zealand",
        "phone_number": null,
        "timezone": "Pacific/Auckland"
    },
    {
        "id": "1472385",
        "gmt": "9",
        "airport_id": "1291",
        "iata_code": "CHF",
        "city_iata_code": "CHF",
        "icao_code": "RKPE",
        "country_iso2": "KR",
        "geoname_id": "7730760",
        "latitude": "35.1375",
        "longitude": "128.69778",
        "airport_name": "Jinhae",
        "country_name": "South Korea",
        "phone_number": null,
        "timezone": "Asia/Seoul"
    },
    {
        "id": "1472386",
        "gmt": "8",
        "airport_id": "1292",
        "iata_code": "CHG",
        "city_iata_code": "CHG",
        "icao_code": "ZYCY",
        "country_iso2": "CN",
        "geoname_id": "7730306",
        "latitude": "41.545082",
        "longitude": "120.4372",
        "airport_name": "Chaoyang Airport",
        "country_name": "China",
        "phone_number": null,
        "timezone": "Asia/Shanghai"
    },
    {
        "id": "1472387",
        "gmt": "-5",
        "airport_id": "1293",
        "iata_code": "CHH",
        "city_iata_code": "CHH",
        "icao_code": "SPPY",
        "country_iso2": "PE",
        "geoname_id": "6300815",
        "latitude": "-6.216667",
        "longitude": "-77.85",
        "airport_name": "Chachapoyas",
        "country_name": "Peru",
        "phone_number": null,
        "timezone": "America/Lima"
    },
    {
        "id": "1472389",
        "gmt": "2",
        "airport_id": "1295",
        "iata_code": "CHJ",
        "city_iata_code": "CHJ",
        "icao_code": "FVCH",
        "country_iso2": "ZW",
        "geoname_id": "6297105",
        "latitude": "-20.2",
        "longitude": "32.65",
        "airport_name": "Chipinge",
        "country_name": "Zimbabwe",
        "phone_number": null,
        "timezone": "Africa/Harare"
    },
    {
        "id": "1472390",
        "gmt": "-6",
        "airport_id": "1296",
        "iata_code": "CHK",
        "city_iata_code": "CHK",
        "icao_code": "KCHK",
        "country_iso2": "US",
        "geoname_id": "4533031",
        "latitude": "35.05",
        "longitude": "-97.96667",
        "airport_name": "Municipal",
        "country_name": "United States",
        "phone_number": null,
        "timezone": "America/Chicago"
    },
    {
        "id": "1472391",
        "gmt": "-7",
        "airport_id": "1297",
        "iata_code": "CHL",
        "city_iata_code": "CHL",
        "icao_code": "KLLJ",
        "country_iso2": "US",
        "geoname_id": "5588525",
        "latitude": "44.5",
        "longitude": "-114.25",
        "airport_name": "Challis",
        "country_name": "United States",
        "phone_number": null,
        "timezone": "America/Boise"
    },
    {
        "id": "1472392",
        "gmt": "-5",
        "airport_id": "1298",
        "iata_code": "CHM",
        "city_iata_code": "CHM",
        "icao_code": "SPEO",
        "country_iso2": "PE",
        "geoname_id": "3698306",
        "latitude": "-9.150556",
        "longitude": "-78.53111",
        "airport_name": "Chimbote",
        "country_name": "Peru",
        "phone_number": null,
        "timezone": "America/Lima"
    },
    {
        "id": "1472393",
        "gmt": "9",
        "airport_id": "1299",
        "iata_code": "CHN",
        "city_iata_code": "CHN",
        "icao_code": "RKJU",
        "country_iso2": "KR",
        "geoname_id": "7668417",
        "latitude": "37.016945",
        "longitude": "127.933334",
        "airport_name": "Jeonju",
        "country_name": "South Korea",
        "phone_number": null,
        "timezone": "Asia/Seoul"
    },
    {
        "id": "1472394",
        "gmt": "-5",
        "airport_id": "1300",
        "iata_code": "CHO",
        "city_iata_code": "CHO",
        "icao_code": "KCHO",
        "country_iso2": "US",
        "geoname_id": "4752044",
        "latitude": "38.139416",
        "longitude": "-78.44928",
        "airport_name": "Albemarle",
        "country_name": "United States",
        "phone_number": null,
        "timezone": "America/New_York"
    },
    {
        "id": "1472396",
        "gmt": "2",
        "airport_id": "1302",
        "iata_code": "CHQ",
        "city_iata_code": "CHQ",
        "icao_code": "LGSA",
        "country_iso2": "GR",
        "geoname_id": "6299507",
        "latitude": "35.5402",
        "longitude": "24.140373",
        "airport_name": "Souda",
        "country_name": "Greece",
        "phone_number": null,
        "timezone": "Europe/Athens"
    },
    {
        "id": "1472397",
        "gmt": "1",
        "airport_id": "1303",
        "iata_code": "CHR",
        "city_iata_code": "CHR",
        "icao_code": "LFLX",
        "country_iso2": "FR",
        "geoname_id": "6299408",
        "latitude": "46.816666",
        "longitude": "1.7",
        "airport_name": "Chateauroux",
        "country_name": "France",
        "phone_number": null,
        "timezone": "Europe/Paris"
    },
    {
        "id": "1472398",
        "gmt": "-5",
        "airport_id": "1304",
        "iata_code": "CHS",
        "city_iata_code": "CHS",
        "icao_code": "KCHS",
        "country_iso2": "US",
        "geoname_id": "4574342",
        "latitude": "32.884354",
        "longitude": "-80.037155",
        "airport_name": "Charleston, AFB Municipal",
        "country_name": "United States",
        "phone_number": null,
        "timezone": "America/New_York"
    },
    {
        "id": "1472399",
        "gmt": "12.45",
        "airport_id": "1305",
        "iata_code": "CHT",
        "city_iata_code": "CHT",
        "icao_code": "NZCI",
        "country_iso2": "NZ",
        "geoname_id": "6299982",
        "latitude": "-43.8",
        "longitude": "-176.35",
        "airport_name": "Karewa",
        "country_name": "New Zealand",
        "phone_number": null,
        "timezone": "Pacific/Chatham"
    },
    {
        "id": "1472400",
        "gmt": "-9",
        "airport_id": "1306",
        "iata_code": "CHU",
        "city_iata_code": "CHU",
        "icao_code": "PACH",
        "country_iso2": "US",
        "geoname_id": "5859358",
        "latitude": "61.583435",
        "longitude": "-159.23882",
        "airport_name": "Chuathbaluk",
        "country_name": "United States",
        "phone_number": null,
        "timezone": "America/Anchorage"
    },
    {
        "id": "1472401",
        "gmt": null,
        "airport_id": "1307",
        "iata_code": "CHV",
        "city_iata_code": "CHV",
        "icao_code": "LPCH",
        "country_iso2": "PT",
        "geoname_id": "7730639",
        "latitude": "41.733334",
        "longitude": "-7.466667",
        "airport_name": "Chaves",
        "country_name": "Portugal",
        "phone_number": null,
        "timezone": "Europe/Lisbon"
    },
    {
        "id": "1472403",
        "gmt": "-5",
        "airport_id": "1309",
        "iata_code": "CHX",
        "city_iata_code": "CHX",
        "icao_code": "MPCH",
        "country_iso2": "PA",
        "geoname_id": "6299895",
        "latitude": "9.45",
        "longitude": "-82.45",
        "airport_name": "Changuinola",
        "country_name": "Panama",
        "phone_number": null,
        "timezone": "America/Panama"
    },
    {
        "id": "1472404",
        "gmt": "11",
        "airport_id": "1310",
        "iata_code": "CHY",
        "city_iata_code": "CHY",
        "icao_code": "AGGC",
        "country_iso2": "SB",
        "geoname_id": "8261013",
        "latitude": "-6.713787",
        "longitude": "156.39856",
        "airport_name": "Choiseul Bay",
        "country_name": "Solomon Islands",
        "phone_number": null,
        "timezone": "Pacific/Guadalcanal"
    },
    {
        "id": "1472406",
        "gmt": "1",
        "airport_id": "1312",
        "iata_code": "CIA",
        "city_iata_code": "ROM",
        "icao_code": "LIRA",
        "country_iso2": "IT",
        "geoname_id": "6299616",
        "latitude": "41.799065",
        "longitude": "12.590987",
        "airport_name": "Ciampino",
        "country_name": "Italy",
        "phone_number": null,
        "timezone": "Europe/Rome"
    },
    {
        "id": "1472408",
        "gmt": "-8",
        "airport_id": "1314",
        "iata_code": "CIC",
        "city_iata_code": "CIC",
        "icao_code": "KCIC",
        "country_iso2": "US",
        "geoname_id": "5336278",
        "latitude": "39.795834",
        "longitude": "-121.85667",
        "airport_name": "Chico",
        "country_name": "United States",
        "phone_number": null,
        "timezone": "America/Los_Angeles"
    },
    {
        "id": "1472409",
        "gmt": "-6",
        "airport_id": "1315",
        "iata_code": "CID",
        "city_iata_code": "CID",
        "icao_code": "KCID",
        "country_iso2": "US",
        "geoname_id": "4850762",
        "latitude": "41.889423",
        "longitude": "-91.7003",
        "airport_name": "Eastern Iowa Airport",
        "country_name": "United States",
        "phone_number": null,
        "timezone": "America/Chicago"
    },
    {
        "id": "1472411",
        "gmt": "8",
        "airport_id": "1317",
        "iata_code": "CIF",
        "city_iata_code": "CIF",
        "icao_code": "ZBCF",
        "country_iso2": "CN",
        "geoname_id": "2048157",
        "latitude": "42.237392",
        "longitude": "118.91089",
        "airport_name": "Chifeng",
        "country_name": "China",
        "phone_number": null,
        "timezone": "Asia/Shanghai"
    },
    {
        "id": "1472412",
        "gmt": "-7",
        "airport_id": "1318",
        "iata_code": "CIG",
        "city_iata_code": "CIG",
        "icao_code": "KCAG",
        "country_iso2": "US",
        "geoname_id": "5576076",
        "latitude": "40.495556",
        "longitude": "-107.525",
        "airport_name": "Craig-Moffat",
        "country_name": "United States",
        "phone_number": null,
        "timezone": "America/Denver"
    },
    {
        "id": "1472413",
        "gmt": "8",
        "airport_id": "1319",
        "iata_code": "CIH",
        "city_iata_code": "CIH",
        "icao_code": "ZBCZ",
        "country_iso2": "CN",
        "geoname_id": "7730917",
        "latitude": "36.24588",
        "longitude": "113.12158",
        "airport_name": "Changzhi",
        "country_name": "China",
        "phone_number": null,
        "timezone": "Asia/Shanghai"
    },
    {
        "id": "1472414",
        "gmt": "3",
        "airport_id": "1320",
        "iata_code": "CII",
        "city_iata_code": "CII",
        "icao_code": "LTBD",
        "country_iso2": "TR",
        "geoname_id": "8394055",
        "latitude": "47.90278",
        "longitude": "-112.312225",
        "airport_name": "Cildir",
        "country_name": "Turkey",
        "phone_number": null,
        "timezone": "Europe/Istanbul"
    },
    {
        "id": "1472415",
        "gmt": "-4",
        "airport_id": "1321",
        "iata_code": "CIJ",
        "city_iata_code": "CIJ",
        "icao_code": "SLCO",
        "country_iso2": "BO",
        "geoname_id": "6300769",
        "latitude": "-11.026389",
        "longitude": "-68.75278",
        "airport_name": "Capitan Anibal Arab",
        "country_name": "Bolivia",
        "phone_number": null,
        "timezone": "America/La_Paz"
    },
    {
        "id": "1472416",
        "gmt": "-9",
        "airport_id": "1322",
        "iata_code": "CIK",
        "city_iata_code": "CIK",
        "icao_code": "PACI",
        "country_iso2": "US",
        "geoname_id": "5858949",
        "latitude": "66.648056",
        "longitude": "-143.72917",
        "airport_name": "Chalkyitsik",
        "country_name": "United States",
        "phone_number": null,
        "timezone": "America/Anchorage"
    },
    {
        "id": "1472418",
        "gmt": "-5",
        "airport_id": "1324",
        "iata_code": "CIM",
        "city_iata_code": "CIM",
        "icao_code": "SKCM",
        "country_iso2": "CO",
        "geoname_id": "7730918",
        "latitude": "6.483333",
        "longitude": "-74.11667",
        "airport_name": "Cimitarra",
        "country_name": "Colombia",
        "phone_number": null,
        "timezone": "America/Bogota"
    },
    {
        "id": "1472419",
        "gmt": "-6",
        "airport_id": "1325",
        "iata_code": "CIN",
        "city_iata_code": "CIN",
        "icao_code": "KCIN",
        "country_iso2": "US",
        "geoname_id": "4850478",
        "latitude": "42.066666",
        "longitude": "-94.86667",
        "airport_name": "Carroll",
        "country_name": "United States",
        "phone_number": null,
        "timezone": "America/Chicago"
    },
    {
        "id": "1472420",
        "gmt": "-4",
        "airport_id": "1326",
        "iata_code": "CIO",
        "city_iata_code": "CIO",
        "icao_code": "SGCO",
        "country_iso2": "PY",
        "geoname_id": "6300728",
        "latitude": "-23.434444",
        "longitude": "-57.41833",
        "airport_name": "MCAL Lopez",
        "country_name": "Paraguay",
        "phone_number": null,
        "timezone": "America/Asuncion"
    },
    {
        "id": "1472421",
        "gmt": "2",
        "airport_id": "1327",
        "iata_code": "CIP",
        "city_iata_code": "CIP",
        "icao_code": "FLCP",
        "country_iso2": "ZM",
        "geoname_id": "918706",
        "latitude": "-13.556944",
        "longitude": "32.587223",
        "airport_name": "Chipata",
        "country_name": "Zambia",
        "phone_number": null,
        "timezone": "Africa/Lusaka"
    },
    {
        "id": "1472423",
        "gmt": "-6",
        "airport_id": "1329",
        "iata_code": "CIR",
        "city_iata_code": "CIR",
        "icao_code": "KCIR",
        "country_iso2": "US",
        "geoname_id": "4234986",
        "latitude": "37",
        "longitude": "-89.183334",
        "airport_name": "Cairo",
        "country_name": "United States",
        "phone_number": null,
        "timezone": "America/Chicago"
    },
    {
        "id": "1472424",
        "gmt": "13",
        "airport_id": "1330",
        "iata_code": "CIS",
        "city_iata_code": "CIS",
        "icao_code": "PCIS",
        "country_iso2": "KI",
        "geoname_id": "7521809",
        "latitude": "-2.833333",
        "longitude": "-171.66667",
        "airport_name": "Canton Island",
        "country_name": "Kiribati",
        "phone_number": null,
        "timezone": "Pacific/Enderbury"
    },
    {
        "id": "1472425",
        "gmt": "6",
        "airport_id": "1331",
        "iata_code": "CIT",
        "city_iata_code": "CIT",
        "icao_code": "UAII",
        "country_iso2": "KZ",
        "geoname_id": "6300916",
        "latitude": "42.3",
        "longitude": "69.6",
        "airport_name": "Shimkent",
        "country_name": "Kazakhstan",
        "phone_number": null,
        "timezone": "Asia/Almaty"
    },
    {
        "id": "1472426",
        "gmt": "-5",
        "airport_id": "1332",
        "iata_code": "CIU",
        "city_iata_code": "SSM",
        "icao_code": "KCIU",
        "country_iso2": "US",
        "geoname_id": "4988756",
        "latitude": "46.5",
        "longitude": "-84.35",
        "airport_name": "Chippewa County",
        "country_name": "United States",
        "phone_number": null,
        "timezone": "America/Detroit"
    },
    {
        "id": "1472428",
        "gmt": "-4",
        "airport_id": "1334",
        "iata_code": "CIW",
        "city_iata_code": "CIW",
        "icao_code": "TVSC",
        "country_iso2": "VC",
        "geoname_id": "7668484",
        "latitude": "12.7",
        "longitude": "-61.316666",
        "airport_name": "Canouan Island",
        "country_name": "Saint Vincent and the Grenadines",
        "phone_number": null,
        "timezone": "America/St_Vincent"
    },
    {
        "id": "1472429",
        "gmt": "-5",
        "airport_id": "1335",
        "iata_code": "CIX",
        "city_iata_code": "CIX",
        "icao_code": "SPHI",
        "country_iso2": "PE",
        "geoname_id": "3698352",
        "latitude": "-6.789722",
        "longitude": "-79.83222",
        "airport_name": "Cornel Ruiz",
        "country_name": "Peru",
        "phone_number": null,
        "timezone": "America/Lima"
    },
    {
        "id": "1472430",
        "gmt": "1",
        "airport_id": "1336",
        "iata_code": "CIY",
        "city_iata_code": "CIY",
        "icao_code": "LICB",
        "country_iso2": "IT",
        "geoname_id": "2524955",
        "latitude": "36.99167",
        "longitude": "14.606944",
        "airport_name": "Comiso",
        "country_name": "Italy",
        "phone_number": null,
        "timezone": "Europe/Rome"
    },
    {
        "id": "1472431",
        "gmt": "-4",
        "airport_id": "1337",
        "iata_code": "CIZ",
        "city_iata_code": "CIZ",
        "icao_code": "SWKO",
        "country_iso2": "BR",
        "geoname_id": "7730920",
        "latitude": "-4.083333",
        "longitude": "-63.13333",
        "airport_name": "Coari",
        "country_name": "Brazil",
        "phone_number": null,
        "timezone": "America/Manaus"
    },
    {
        "id": "1472432",
        "gmt": "-5",
        "airport_id": "1338",
        "iata_code": "CJA",
        "city_iata_code": "CJA",
        "icao_code": "SPJB",
        "country_iso2": "PE",
        "geoname_id": "6300811",
        "latitude": "-7.133333",
        "longitude": "-78.5",
        "airport_name": "Cajamarca",
        "country_name": "Peru",
        "phone_number": null,
        "timezone": "America/Lima"
    },
    {
        "id": "1472433",
        "gmt": "5.30",
        "airport_id": "1339",
        "iata_code": "CJB",
        "city_iata_code": "CJB",
        "icao_code": "VOCB",
        "country_iso2": "IN",
        "geoname_id": "6301121",
        "latitude": "11.031026",
        "longitude": "77.03893",
        "airport_name": "Peelamedu",
        "country_name": "India",
        "phone_number": null,
        "timezone": "Asia/Kolkata"
    },
    {
        "id": "1472434",
        "gmt": "-4",
        "airport_id": "1340",
        "iata_code": "CJC",
        "city_iata_code": "CJC",
        "icao_code": "SCCF",
        "country_iso2": "CL",
        "geoname_id": "3897347",
        "latitude": "-22.495085",
        "longitude": "-68.90843",
        "airport_name": "El Loa",
        "country_name": null,
        "phone_number": null,
        "timezone": "America/Santiago"
    },
    {
        "id": "1472437",
        "gmt": "9",
        "airport_id": "1343",
        "iata_code": "CJJ",
        "city_iata_code": "CJJ",
        "icao_code": "RKTU",
        "country_iso2": "KR",
        "geoname_id": "6300454",
        "latitude": "36.7224",
        "longitude": "127.49509",
        "airport_name": "Cheongju",
        "country_name": "South Korea",
        "phone_number": null,
        "timezone": "Asia/Seoul"
    },
    {
        "id": "1472438",
        "gmt": "5",
        "airport_id": "1344",
        "iata_code": "CJL",
        "city_iata_code": "CJL",
        "icao_code": "OPCH",
        "country_iso2": "PK",
        "geoname_id": null,
        "latitude": "35.886112",
        "longitude": "71.79444",
        "airport_name": "Chitral",
        "country_name": "Pakistan",
        "phone_number": null,
        "timezone": "Asia/Karachi"
    },
    {
        "id": "1472439",
        "gmt": "7",
        "airport_id": "1345",
        "iata_code": "CJM",
        "city_iata_code": "CJM",
        "icao_code": "VTSE",
        "country_iso2": "TH",
        "geoname_id": "7730222",
        "latitude": "10.709722",
        "longitude": "99.36389",
        "airport_name": "Chumphon Airport",
        "country_name": "Thailand",
        "phone_number": null,
        "timezone": "Asia/Bangkok"
    },
    {
        "id": "1472441",
        "gmt": "-7",
        "airport_id": "1347",
        "iata_code": "CJS",
        "city_iata_code": "CJS",
        "icao_code": "MMCS",
        "country_iso2": "MX",
        "geoname_id": "7669055",
        "latitude": "31.63593",
        "longitude": "-106.4361",
        "airport_name": "Abraham Gonzalez International",
        "country_name": "Mexico",
        "phone_number": null,
        "timezone": "America/Ojinaga"
    },
    {
        "id": "1472442",
        "gmt": "-6",
        "airport_id": "1348",
        "iata_code": "CJT",
        "city_iata_code": "CJT",
        "icao_code": "MMCO",
        "country_iso2": "MX",
        "geoname_id": "7730663",
        "latitude": "16.166668",
        "longitude": "-92.05",
        "airport_name": "Copalar",
        "country_name": "Mexico",
        "phone_number": null,
        "timezone": "America/Mexico_City"
    },